[
	{
		"nationality" : "Germany",
		"Team" : "Norwich City ",
		"LongCentroid" : 10.38578051,
		"LatCentroid" : 51.10698181,
		"PlayersNames" : "Ralf Fährmann;Moritz Leitner;Tom Trybull;Onel Lázaro Hernández Mayea;Marco Stiepermann;Christoph Zimmermann;Philip Heise;Dennis Srbeny",
		"PlayersNr" : 8
	},
	{
		"nationality" : "Bosnia Herzegovina",
		"Team" : "Norwich City ",
		"LongCentroid" : 17.76876733,
		"LatCentroid" : 44.17450125,
		"PlayersNames" : "Mario Vrančić",
		"PlayersNr" : 1
	},
	{
		"nationality" : "Scotland",
		"Team" : "Norwich City ",
		"LongCentroid" : -4.183963,
		"LatCentroid" : 56.816738,
		"PlayersNames" : "Kenny McLean;Grant Hanley;Aidan Fitzpatrick",
		"PlayersNr" : 3
	},
	{
		"nationality" : "Belgium",
		"Team" : "Norwich City ",
		"LongCentroid" : 4.64065114,
		"LatCentroid" : 50.63981576,
		"PlayersNames" : "Rob Nizet",
		"PlayersNr" : 1
	},
	{
		"nationality" : "Northern Ireland",
		"Team" : "Norwich City ",
		"LongCentroid" : -6.693145,
		"LatCentroid" : 54.607577,
		"PlayersNames" : "Jamal Lewis;Michael McGovern",
		"PlayersNr" : 2
	},
	{
		"nationality" : "Switzerland",
		"Team" : "Norwich City ",
		"LongCentroid" : 8.20867471,
		"LatCentroid" : 46.79785878,
		"PlayersNames" : "Josip Drmić;Timm Klose",
		"PlayersNr" : 2
	},
	{
		"nationality" : "Morocco",
		"Team" : "Norwich City ",
		"LongCentroid" : -8.45615795,
		"LatCentroid" : 29.83762955,
		"PlayersNames" : "Gassan Ahadme",
		"PlayersNr" : 1
	},
	{
		"nationality" : "Argentina",
		"Team" : "Norwich City ",
		"LongCentroid" : -65.17980692,
		"LatCentroid" : -35.3813488,
		"PlayersNames" : "Emiliano Buendía",
		"PlayersNr" : 1
	},
	{
		"nationality" : "Netherlands",
		"Team" : "Norwich City ",
		"LongCentroid" : 5.28144793,
		"LatCentroid" : 52.1007899,
		"PlayersNames" : "Tim Krul",
		"PlayersNr" : 1
	},
	{
		"nationality" : "France",
		"Team" : "Norwich City ",
		"LongCentroid" : -2.76172945,
		"LatCentroid" : 42.17344011,
		"PlayersNames" : "Ibrahim Amadou",
		"PlayersNr" : 1
	},
	{
		"nationality" : "Republic of Ireland",
		"Team" : "Norwich City ",
		"LongCentroid" : -8.13793569,
		"LatCentroid" : 53.1754487,
		"PlayersNames" : "Adam Idah",
		"PlayersNr" : 1
	},
	{
		"nationality" : "Finland",
		"Team" : "Norwich City ",
		"LongCentroid" : 26.2746656,
		"LatCentroid" : 64.49884603,
		"PlayersNames" : "Teemu Pukki",
		"PlayersNr" : 1
	},
	{
		"nationality" : "England",
		"Team" : "Norwich City ",
		"LongCentroid" : -1.464854,
		"LatCentroid" : 52.561928,
		"PlayersNames" : "Patrick Roberts;Maximillian James Aarons;Sam Byram;Ben Godfrey;Todd Cantwell;Daniel Adshead;Josh Martin;Timi Odusina;Akin Famewo",
		"PlayersNr" : 9
	},
	{
		"nationality" : "Norway",
		"Team" : "Norwich City ",
		"LongCentroid" : 15.34834656,
		"LatCentroid" : 68.75015572,
		"PlayersNames" : "Alexander Banor Tettey",
		"PlayersNr" : 1
	}
]