[
	{
		"nationality" : "Germany",
		"Team" : "Norwich City ",
		"LongCentroid" : 10.38578051,
		"LatCentroid" : 51.10698181,
		"PlayersNames" : "Ralf Fährmann \n ;Moritz Leitner \n ;Tom Trybull \n ;Onel Lázaro Hernández Mayea \n ;Marco Stiepermann \n ;Christoph Zimmermann \n ;Philip Heise \n ;Dennis Srbeny \n ",
		"PlayersNr" : 8
	},
	{
		"nationality" : "Bosnia Herzegovina",
		"Team" : "Norwich City ",
		"LongCentroid" : 17.76876733,
		"LatCentroid" : 44.17450125,
		"PlayersNames" : "Mario Vrančić \n ",
		"PlayersNr" : 1
	},
	{
		"nationality" : "Scotland",
		"Team" : "Norwich City ",
		"LongCentroid" : -4.183963,
		"LatCentroid" : 56.816738,
		"PlayersNames" : "Kenny McLean \n ;Grant Hanley \n ;Aidan Fitzpatrick \n ",
		"PlayersNr" : 3
	},
	{
		"nationality" : "Belgium",
		"Team" : "Norwich City ",
		"LongCentroid" : 4.64065114,
		"LatCentroid" : 50.63981576,
		"PlayersNames" : "Rob Nizet \n ",
		"PlayersNr" : 1
	},
	{
		"nationality" : "Northern Ireland",
		"Team" : "Norwich City ",
		"LongCentroid" : -6.693145,
		"LatCentroid" : 54.607577,
		"PlayersNames" : "Jamal Lewis \n ;Michael McGovern \n ",
		"PlayersNr" : 2
	},
	{
		"nationality" : "Switzerland",
		"Team" : "Norwich City ",
		"LongCentroid" : 8.20867471,
		"LatCentroid" : 46.79785878,
		"PlayersNames" : "Josip Drmić \n ;Timm Klose \n ",
		"PlayersNr" : 2
	},
	{
		"nationality" : "Morocco",
		"Team" : "Norwich City ",
		"LongCentroid" : -8.45615795,
		"LatCentroid" : 29.83762955,
		"PlayersNames" : "Gassan Ahadme \n ",
		"PlayersNr" : 1
	},
	{
		"nationality" : "Argentina",
		"Team" : "Norwich City ",
		"LongCentroid" : -65.17980692,
		"LatCentroid" : -35.3813488,
		"PlayersNames" : "Emiliano Buendía \n ",
		"PlayersNr" : 1
	},
	{
		"nationality" : "Netherlands",
		"Team" : "Norwich City ",
		"LongCentroid" : 5.28144793,
		"LatCentroid" : 52.1007899,
		"PlayersNames" : "Tim Krul \n ",
		"PlayersNr" : 1
	},
	{
		"nationality" : "France",
		"Team" : "Norwich City ",
		"LongCentroid" : 2.76172944519,
		"LatCentroid" : 46.76172944519,
		"PlayersNames" : "Ibrahim Amadou \n ",
		"PlayersNr" : 1
	},
	{
		"nationality" : "Republic of Ireland",
		"Team" : "Norwich City ",
		"LongCentroid" : -8.13793569,
		"LatCentroid" : 53.1754487,
		"PlayersNames" : "Adam Idah \n ",
		"PlayersNr" : 1
	},
	{
		"nationality" : "Finland",
		"Team" : "Norwich City ",
		"LongCentroid" : 26.2746656,
		"LatCentroid" : 64.49884603,
		"PlayersNames" : "Teemu Pukki \n ",
		"PlayersNr" : 1
	},
	{
		"nationality" : "England",
		"Team" : "Norwich City ",
		"LongCentroid" : -1.464854,
		"LatCentroid" : 52.561928,
		"PlayersNames" : "Patrick Roberts \n ;Maximillian James Aarons \n ;Sam Byram \n ;Ben Godfrey \n ;Todd Cantwell \n ;Daniel Adshead \n ;Josh Martin \n ;Timi Odusina \n ;Akin Famewo \n ",
		"PlayersNr" : 9
	},
	{
		"nationality" : "Norway",
		"Team" : "Norwich City ",
		"LongCentroid" : 15.34834656,
		"LatCentroid" : 68.75015572,
		"PlayersNames" : "Alexander Banor Tettey \n ",
		"PlayersNr" : 1
	}
]