{
"type": "FeatureCollection",
"features": [
{ "type": "Feature", "properties": { "HomeTeam": 15, "key": "Liverpool", "Team": "Liverpool ", "FDCOUK": "Liverpool", "City": "Liverpool ", "Stadium": "Anfield ", "Capacity": 45276, "Latitude": 53.430819, "Longitude": -2.960828, "Country": "England" }, "geometry": { "type": "Point", "coordinates": [ -2.960828, 53.430819 ] } },
{ "type": "Feature", "properties": { "HomeTeam": 9, "key": "Leicester", "Team": "Leicester City ", "FDCOUK": "Leicester", "City": "Leicester ", "Stadium": "King Power Stadium ", "Capacity": 32500, "Latitude": 52.620278, "Longitude": -1.142222, "Country": "England" }, "geometry": { "type": "Point", "coordinates": [ -1.142222, 52.620278 ] } },
{ "type": "Feature", "properties": { "HomeTeam": 9, "key": "Man City", "Team": "Manchester City ", "FDCOUK": "Man City", "City": "Manchester ", "Stadium": "Etihad Stadium", "Capacity": 47405, "Latitude": 53.482989, "Longitude": -2.200292, "Country": "England" }, "geometry": { "type": "Point", "coordinates": [ -2.200292, 53.482989 ] } },
{ "type": "Feature", "properties": { "HomeTeam": 8, "key": "Tottenham", "Team": "Tottenham Hotspur ", "FDCOUK": "Tottenham", "City": "London ", "Stadium": "White Hart Lane ", "Capacity": 36230, "Latitude": 51.603333, "Longitude": -0.065833, "Country": "England" }, "geometry": { "type": "Point", "coordinates": [ -0.065833, 51.603333 ] } },
{ "type": "Feature", "properties": { "HomeTeam": 8, "key": "Man United", "Team": "Manchester United ", "FDCOUK": "Man United", "City": "Stretford ", "Stadium": "Old Trafford ", "Capacity": 75811, "Latitude": 53.463056, "Longitude": -2.291389, "Country": "England" }, "geometry": { "type": "Point", "coordinates": [ -2.291389, 53.463056 ] } },
{ "type": "Feature", "properties": { "HomeTeam": 7, "key": "Chelsea", "Team": "Chelsea ", "FDCOUK": "Chelsea", "City": "London ", "Stadium": "Stamford Bridge ", "Capacity": 42449, "Latitude": 51.481667, "Longitude": -0.191111, "Country": "England" }, "geometry": { "type": "Point", "coordinates": [ -0.191111, 51.481667 ] } },
{ "type": "Feature", "properties": { "HomeTeam": 7, "key": "Sheffield United", "Team": "Sheffield United", "FDCOUK": "Sheffield United", "City": "Sheffield", "Stadium": "Bramall Lane", "Capacity": 33000, "Latitude": 53.370278, "Longitude": -1.470833, "Country": "England" }, "geometry": { "type": "Point", "coordinates": [ -1.470833, 53.370278 ] } },
{ "type": "Feature", "properties": { "HomeTeam": 7, "key": "Everton", "Team": "Everton ", "FDCOUK": "Everton", "City": "Liverpool ", "Stadium": "Goodison Park ", "Capacity": 40157, "Latitude": 53.438889, "Longitude": -2.966389, "Country": "England" }, "geometry": { "type": "Point", "coordinates": [ -2.966389, 53.438889 ] } },
{ "type": "Feature", "properties": { "HomeTeam": 7, "key": "Burnley", "Team": "Burnley ", "FDCOUK": "Burnley", "City": "Burnley ", "Stadium": "Turf Moor ", "Capacity": 22546, "Latitude": 53.789167, "Longitude": -2.230278, "Country": "England" }, "geometry": { "type": "Point", "coordinates": [ -2.230278, 53.789167 ] } },
{ "type": "Feature", "properties": { "HomeTeam": 7, "key": "Arsenal", "Team": "Arsenal ", "FDCOUK": "Arsenal", "City": "London ", "Stadium": "Emirates Stadium ", "Capacity": 60361, "Latitude": 51.555, "Longitude": -0.108611, "Country": "England" }, "geometry": { "type": "Point", "coordinates": [ -0.108611, 51.555 ] } },
{ "type": "Feature", "properties": { "HomeTeam": 6, "key": "Crystal Palace", "Team": "Crystal Palace ", "FDCOUK": "Crystal Palace", "City": "London ", "Stadium": "Selhurst Park ", "Capacity": 26309, "Latitude": 51.398333, "Longitude": -0.085556, "Country": "England" }, "geometry": { "type": "Point", "coordinates": [ -0.085556, 51.398333 ] } },
{ "type": "Feature", "properties": { "HomeTeam": 5, "key": "Aston Villa", "Team": "Aston Villa ", "FDCOUK": "Aston Villa", "City": "Birmingham ", "Stadium": "Villa Park ", "Capacity": 42785, "Latitude": 52.509167, "Longitude": -1.884722, "Country": "England" }, "geometry": { "type": "Point", "coordinates": [ -1.884722, 52.509167 ] } },
{ "type": "Feature", "properties": { "HomeTeam": 5, "key": "Newcastle", "Team": "Newcastle United ", "FDCOUK": "Newcastle", "City": "Newcastle upon Tyne ", "Stadium": "Sports Direct Arena", "Capacity": 52409, "Latitude": 54.975556, "Longitude": -1.621667, "Country": "England" }, "geometry": { "type": "Point", "coordinates": [ -1.621667, 54.975556 ] } },
{ "type": "Feature", "properties": { "HomeTeam": 5, "key": "Wolves", "Team": "Wolverhampton Wanderers ", "FDCOUK": "Wolves", "City": "Wolverhampton ", "Stadium": "Molineux Stadium ", "Capacity": 27828, "Latitude": 52.590278, "Longitude": -2.130278, "Country": "England" }, "geometry": { "type": "Point", "coordinates": [ -2.130278, 52.590278 ] } },
{ "type": "Feature", "properties": { "HomeTeam": 4, "key": "Southampton", "Team": "Southampton ", "FDCOUK": "Southampton", "City": "Southampton ", "Stadium": "St Mary's Stadium ", "Capacity": 32689, "Latitude": 50.905833, "Longitude": -1.391111, "Country": "England" }, "geometry": { "type": "Point", "coordinates": [ -1.391111, 50.905833 ] } },
{ "type": "Feature", "properties": { "HomeTeam": 4, "key": "Norwich", "Team": "Norwich City ", "FDCOUK": "Norwich", "City": "Norwich ", "Stadium": "Carrow Road ", "Capacity": 27010, "Latitude": 52.622128, "Longitude": 1.308653, "Country": "England" }, "geometry": { "type": "Point", "coordinates": [ 1.308653, 52.622128 ] } },
{ "type": "Feature", "properties": { "HomeTeam": 4, "key": "Bournemouth", "Team": "Bournemouth", "FDCOUK": "Bournemouth", "City": "Bournemouth", "Stadium": "Vitality Stadium", "Capacity": 10375, "Latitude": 50.735278, "Longitude": -1.838333, "Country": "England" }, "geometry": { "type": "Point", "coordinates": [ -1.838333, 50.735278 ] } },
{ "type": "Feature", "properties": { "HomeTeam": 4, "key": "Brighton", "Team": "Brighton & Hove Albion ", "FDCOUK": "Brighton", "City": "Brighton ", "Stadium": "American Express Community Stadium ", "Capacity": 22374, "Latitude": 50.861822, "Longitude": -0.083278, "Country": "England" }, "geometry": { "type": "Point", "coordinates": [ -0.083278, 50.861822 ] } },
{ "type": "Feature", "properties": { "HomeTeam": 4, "key": "Watford", "Team": "Watford ", "FDCOUK": "Watford", "City": "Watford ", "Stadium": "Vicarage Road ", "Capacity": 23500, "Latitude": 51.649836, "Longitude": -0.401486, "Country": "England" }, "geometry": { "type": "Point", "coordinates": [ -0.401486, 51.649836 ] } },
{ "type": "Feature", "properties": { "HomeTeam": 4, "key": "West Ham", "Team": "West Ham United ", "FDCOUK": "West Ham", "City": "London ", "Stadium": "Boleyn Ground ", "Capacity": 35303, "Latitude": 51.531944, "Longitude": 0.039444, "Country": "England" }, "geometry": { "type": "Point", "coordinates": [ 0.039444, 51.531944 ] } }
]
}
