[
	{
		"nationality" : "Denmark",
		"Team" : "Leicester City ",
		"LongCentroid" : 10.02800992,
		"LatCentroid" : 55.98125296,
		"PlayersNames" : "Kasper Schmeichel \n ",
		"PlayersNr" : 1
	},
	{
		"nationality" : "Mali",
		"Team" : "Leicester City ",
		"LongCentroid" : -3.54269065,
		"LatCentroid" : 17.34581581,
		"PlayersNames" : "Fousseni Diabaté \n ",
		"PlayersNr" : 1
	},
	{
		"nationality" : "Wales",
		"Team" : "Leicester City ",
		"LongCentroid" : -3.766409,
		"LatCentroid" : 52.33022,
		"PlayersNames" : "Danny Ward \n ;George Thomas \n ",
		"PlayersNr" : 2
	},
	{
		"nationality" : "Spain",
		"Team" : "Leicester City ",
		"LongCentroid" : -3.64755047,
		"LatCentroid" : 40.24448698,
		"PlayersNames" : "Ayoze Pérez Gutiérrez \n ",
		"PlayersNr" : 1
	},
	{
		"nationality" : "Ghana",
		"Team" : "Leicester City ",
		"LongCentroid" : -1.21676566,
		"LatCentroid" : 7.95345644,
		"PlayersNames" : "Daniel Amartey \n ",
		"PlayersNr" : 1
	},
	{
		"nationality" : "Nigeria",
		"Team" : "Leicester City ",
		"LongCentroid" : 8.08943895,
		"LatCentroid" : 9.59411452,
		"PlayersNames" : "Onyinye Wilfred Ndidi \n ;Kelechi Iheanacho \n ",
		"PlayersNr" : 2
	},
	{
		"nationality" : "France",
		"Team" : "Leicester City ",
		"LongCentroid" : 2.76172944519,
		"LatCentroid" : 46.76172944519,
		"PlayersNames" : "Nampalys Mendy \n ",
		"PlayersNr" : 1
	},
	{
		"nationality" : "England",
		"Team" : "Leicester City ",
		"LongCentroid" : -1.464854,
		"LatCentroid" : 52.561928,
		"PlayersNames" : "Jamie Vardy \n ;Ben Chilwell \n ;James Maddison \n ;Marc Albrighton \n ;Harvey Lewis Barnes \n ;Demarai Gray \n ;Hamza Choudhury \n ;James Justin \n ;Matty James \n ;Sam Hughes \n ",
		"PlayersNr" : 10
	},
	{
		"nationality" : "Romania",
		"Team" : "Leicester City ",
		"LongCentroid" : 24.97293039,
		"LatCentroid" : 45.85243127,
		"PlayersNames" : "Alexandru Stefan Pascanu \n ",
		"PlayersNr" : 1
	},
	{
		"nationality" : "Jamaica",
		"Team" : "Leicester City ",
		"LongCentroid" : -77.31482593,
		"LatCentroid" : 18.15694878,
		"PlayersNames" : "Wes Morgan \n ",
		"PlayersNr" : 1
	},
	{
		"nationality" : "Austria",
		"Team" : "Leicester City ",
		"LongCentroid" : 14.1264761,
		"LatCentroid" : 47.58549439,
		"PlayersNames" : "Christian Fuchs \n ",
		"PlayersNr" : 1
	},
	{
		"nationality" : "Switzerland",
		"Team" : "Leicester City ",
		"LongCentroid" : 8.20867471,
		"LatCentroid" : 46.79785878,
		"PlayersNames" : "Eldin Jakupović \n ",
		"PlayersNr" : 1
	},
	{
		"nationality" : "Algeria",
		"Team" : "Leicester City ",
		"LongCentroid" : 2.61732301,
		"LatCentroid" : 28.15893849,
		"PlayersNames" : "Rachid Ghezzal \n ;Islam Slimani \n ",
		"PlayersNr" : 2
	},
	{
		"nationality" : "Turkey",
		"Team" : "Leicester City ",
		"LongCentroid" : 35.16895346,
		"LatCentroid" : 39.0616029,
		"PlayersNames" : "Çağlar Söyüncü \n ",
		"PlayersNr" : 1
	},
	{
		"nationality" : "Portugal",
		"Team" : "Leicester City ",
		"LongCentroid" : -8.50104361,
		"LatCentroid" : 39.59550671,
		"PlayersNames" : "Ricardo Barbosa Pereira \n ;Adrien Sebastian Perruchet Silva \n ",
		"PlayersNr" : 2
	},
	{
		"nationality" : "Poland",
		"Team" : "Leicester City ",
		"LongCentroid" : 19.39012835,
		"LatCentroid" : 52.12759564,
		"PlayersNames" : "Bartosz Kapustka \n ",
		"PlayersNr" : 1
	},
	{
		"nationality" : "Croatia",
		"Team" : "Leicester City ",
		"LongCentroid" : 16.40412899,
		"LatCentroid" : 45.08047631,
		"PlayersNames" : "Filip Benković \n ",
		"PlayersNr" : 1
	},
	{
		"nationality" : "Belgium",
		"Team" : "Leicester City ",
		"LongCentroid" : 4.64065114,
		"LatCentroid" : 50.63981576,
		"PlayersNames" : "Youri Tielemans \n ;Dennis Praet \n ",
		"PlayersNr" : 2
	},
	{
		"nationality" : "Northern Ireland",
		"Team" : "Leicester City ",
		"LongCentroid" : -6.693145,
		"LatCentroid" : 54.607577,
		"PlayersNames" : "Jonny Evans \n ",
		"PlayersNr" : 1
	}
]