[
	{
		"nationality" : "Netherlands",
		"Team" : "Liverpool ",
		"LongCentroid" : 5.28144793,
		"LatCentroid" : 52.1007899,
		"PlayersNames" : "Virgil van Dijk \n ;Georginio Wijnaldum \n ;Sepp van den Berg \n ;Ki-Jana Hoever \n ",
		"PlayersNr" : 4
	},
	{
		"nationality" : "Scotland",
		"Team" : "Liverpool ",
		"LongCentroid" : -4.183963,
		"LatCentroid" : 56.816738,
		"PlayersNames" : "Andrew Robertson \n ",
		"PlayersNr" : 1
	},
	{
		"nationality" : "Algeria",
		"Team" : "Liverpool ",
		"LongCentroid" : 2.61732301,
		"LatCentroid" : 28.15893849,
		"PlayersNames" : "Yasser Larouci \n ",
		"PlayersNr" : 1
	},
	{
		"nationality" : "Egypt",
		"Team" : "Liverpool ",
		"LongCentroid" : 29.86190099,
		"LatCentroid" : 26.49593311,
		"PlayersNames" : "Mohamed  Salah Ghaly \n ",
		"PlayersNr" : 1
	},
	{
		"nationality" : "Spain",
		"Team" : "Liverpool ",
		"LongCentroid" : -3.64755047,
		"LatCentroid" : 40.24448698,
		"PlayersNames" : "Adrián San Miguel del Castillo \n ;Pedro Chirivella Burgos \n ",
		"PlayersNr" : 2
	},
	{
		"nationality" : "Guinea",
		"Team" : "Liverpool ",
		"LongCentroid" : -10.94066612,
		"LatCentroid" : 10.43621593,
		"PlayersNames" : "Naby Keïta \n ",
		"PlayersNr" : 1
	},
	{
		"nationality" : "Switzerland",
		"Team" : "Liverpool ",
		"LongCentroid" : 8.20867471,
		"LatCentroid" : 46.79785878,
		"PlayersNames" : "Xherdan Shaqiri \n ",
		"PlayersNr" : 1
	},
	{
		"nationality" : "Brazil",
		"Team" : "Liverpool ",
		"LongCentroid" : -53.09783113,
		"LatCentroid" : -10.78777702,
		"PlayersNames" : "Alisson Ramses Becker \n ;Roberto Firmino Barbosa de Oliveira \n ;Fábio Henrique Tavares \n ",
		"PlayersNr" : 3
	},
	{
		"nationality" : "Germany",
		"Team" : "Liverpool ",
		"LongCentroid" : 10.38578051,
		"LatCentroid" : 51.10698181,
		"PlayersNames" : "Paul Glatzel \n ",
		"PlayersNr" : 1
	},
	{
		"nationality" : "Croatia",
		"Team" : "Liverpool ",
		"LongCentroid" : 16.40412899,
		"LatCentroid" : 45.08047631,
		"PlayersNames" : "Dejan Lovren \n ",
		"PlayersNr" : 1
	},
	{
		"nationality" : "Cameroon",
		"Team" : "Liverpool ",
		"LongCentroid" : 12.73964156,
		"LatCentroid" : 5.69109849,
		"PlayersNames" : "Joël Andre Job Matip \n ",
		"PlayersNr" : 1
	},
	{
		"nationality" : "Republic of Ireland",
		"Team" : "Liverpool ",
		"LongCentroid" : -8.13793569,
		"LatCentroid" : 53.1754487,
		"PlayersNames" : "Caoimhin Kelleher \n ",
		"PlayersNr" : 1
	},
	{
		"nationality" : "Senegal",
		"Team" : "Liverpool ",
		"LongCentroid" : -14.4734924,
		"LatCentroid" : 14.36624173,
		"PlayersNames" : "Sadio Mané \n ",
		"PlayersNr" : 1
	},
	{
		"nationality" : "Belgium",
		"Team" : "Liverpool ",
		"LongCentroid" : 4.64065114,
		"LatCentroid" : 50.63981576,
		"PlayersNames" : "Divock Origi \n ",
		"PlayersNr" : 1
	},
	{
		"nationality" : "England",
		"Team" : "Liverpool ",
		"LongCentroid" : -1.464854,
		"LatCentroid" : 52.561928,
		"PlayersNames" : "Trent Alexander-Arnold \n ;Jordan Brian Henderson \n ;James Philip Milner \n ;Joe Gomez \n ;Alex Oxlade-Chamberlain \n ;Adam David Lallana \n ;Nathaniel Edwin Clyne \n ;Ryan Kent \n ;Herbie Kane \n ;Andrew Lonergan \n ;Rhian Brewster \n ;Curtis Jones \n ;Adam Lewis \n ",
		"PlayersNr" : 13
	}
]