[
	{
		"nationality" : "Brazil",
		"Team" : "West Ham United ",
		"LongCentroid" : -53.09783113,
		"LatCentroid" : -10.78777702,
		"PlayersNames" : "Felipe  Anderson Pereira Gomes",
		"PlayersNr" : 1
	},
	{
		"nationality" : "Scotland",
		"Team" : "West Ham United ",
		"LongCentroid" : -4.183963,
		"LatCentroid" : 56.816738,
		"PlayersNames" : "Robert Snodgrass",
		"PlayersNr" : 1
	},
	{
		"nationality" : "Republic of Ireland",
		"Team" : "West Ham United ",
		"LongCentroid" : -8.13793569,
		"LatCentroid" : 53.1754487,
		"PlayersNames" : "Conor Coventry",
		"PlayersNr" : 1
	},
	{
		"nationality" : "Spain",
		"Team" : "West Ham United ",
		"LongCentroid" : -3.64755047,
		"LatCentroid" : 40.24448698,
		"PlayersNames" : "Pablo Fornals Malla;Roberto Jiménez Gago",
		"PlayersNr" : 2
	},
	{
		"nationality" : "Colombia",
		"Team" : "West Ham United ",
		"LongCentroid" : -73.08114582,
		"LatCentroid" : 3.91383431,
		"PlayersNames" : "Carlos Sánchez",
		"PlayersNr" : 1
	},
	{
		"nationality" : "Switzerland",
		"Team" : "West Ham United ",
		"LongCentroid" : 8.20867471,
		"LatCentroid" : 46.79785878,
		"PlayersNames" : "Albian Ajeti",
		"PlayersNr" : 1
	},
	{
		"nationality" : "Poland",
		"Team" : "West Ham United ",
		"LongCentroid" : 19.39012835,
		"LatCentroid" : 52.12759564,
		"PlayersNames" : "Łukasz Fabiański",
		"PlayersNr" : 1
	},
	{
		"nationality" : "New Zealand",
		"Team" : "West Ham United ",
		"LongCentroid" : 171.48492347,
		"LatCentroid" : -41.81113557,
		"PlayersNames" : "Winston  Reid",
		"PlayersNr" : 1
	},
	{
		"nationality" : "Paraguay",
		"Team" : "West Ham United ",
		"LongCentroid" : -58.40013703,
		"LatCentroid" : -23.22823913,
		"PlayersNames" : "Fabián Balbuena",
		"PlayersNr" : 1
	},
	{
		"nationality" : "Portugal",
		"Team" : "West Ham United ",
		"LongCentroid" : -8.50104361,
		"LatCentroid" : 39.59550671,
		"PlayersNames" : "Gonçalo Bento Soares Cardoso;Alexandre Costa Silva;Mésaque Geremias Djú",
		"PlayersNr" : 3
	},
	{
		"nationality" : "Argentina",
		"Team" : "West Ham United ",
		"LongCentroid" : -65.17980692,
		"LatCentroid" : -35.3813488,
		"PlayersNames" : "Manuel Lanzini;Pablo Javier Zabaleta Girod",
		"PlayersNr" : 2
	},
	{
		"nationality" : "France",
		"Team" : "West Ham United ",
		"LongCentroid" : -2.76172945,
		"LatCentroid" : 42.17344011,
		"PlayersNames" : "Sébastien Haller;Issa Diop",
		"PlayersNr" : 2
	},
	{
		"nationality" : "Italy",
		"Team" : "West Ham United ",
		"LongCentroid" : 12.07001339,
		"LatCentroid" : 42.79662641,
		"PlayersNames" : "Angelo Obinze Ogbonna",
		"PlayersNr" : 1
	},
	{
		"nationality" : "Mexico",
		"Team" : "West Ham United ",
		"LongCentroid" : -102.52345169,
		"LatCentroid" : 23.94753724,
		"PlayersNames" : "Javier Hernández Balcázar",
		"PlayersNr" : 1
	},
	{
		"nationality" : "England",
		"Team" : "West Ham United ",
		"LongCentroid" : -1.464854,
		"LatCentroid" : 52.561928,
		"PlayersNames" : "Jack Wilshere;Declan Rice;Michail Antonio;Mark Noble;Aaron Cresswell;Ryan Fredericks;David Edward Martin;Nathan Holland;Joe Powell;Oladapo Afolayan;Daniel Kemp;Ben Johnson",
		"PlayersNr" : 12
	},
	{
		"nationality" : "DR Congo",
		"Team" : "West Ham United ",
		"LongCentroid" : 15.21965762,
		"LatCentroid" : -0.83787463,
		"PlayersNames" : "Arthur Masuaku",
		"PlayersNr" : 1
	},
	{
		"nationality" : "Ukraine",
		"Team" : "West Ham United ",
		"LongCentroid" : 31.38326469,
		"LatCentroid" : 48.99656673,
		"PlayersNames" : "Andriy Yarmolenko",
		"PlayersNr" : 1
	}
]